{
  "type": "FeatureCollection",
  "features": [
    {
      "type": "Feature",
      "geometry": {
        "type": "Point",
        "coordinates": [
          14.437900,
          50.075638
        ]
      },
      "properties": {
        "name": "Praha",
        "category": "Pirátská strana",
        "description": "",
        "id": 1,
        "meta:MO": "I"        
      }
    },
    {
      "type": "Feature",
      "geometry": {
        "type": "Point",
        "coordinates": [
          14.4153065,
          50.0734167
        ]
      },
      "properties": {
        "name": "Praha - PICE",
        "category": "Pirátská strana",
        "description": "",
        "id": 2,
        "meta:MO": "I"        
      }
    },
    {
      "type": "Feature",
      "geometry": {
        "type": "Point",
        "coordinates": [
          14.4210489,
          50.0878334
        ]
      },
      "properties": {
        "name": "Praha 1",
        "category": "Pirátská strana",
        "description": "",
        "id": 3,
        "meta:MO": "I"        
      }
    },
    {
      "type": "Feature",
      "geometry": {
        "type": "Point",
        "coordinates": [
          14.4350772,
          50.0750689
        ]
      },
      "properties": {
        "name": "Praha 2",
        "category": "Pirátská strana",
        "description": "",
        "id": 4,
        "meta:MO": "I"        
      }
    },
    {
      "type": "Feature",
      "geometry": {
        "type": "Point",
        "coordinates": [
          14.4543504,
          50.0854115
        ]
      },
      "properties": {
        "name": "Praha 3",
        "category": "Pirátská strana",
        "description": "",
        "id": 5,
        "meta:MO": "I"        
      }
    },
    {
      "type": "Feature",
      "geometry": {
        "type": "Point",
        "coordinates": [
          14.687470,
          49.783882
        ]
      },
      "properties": {
        "name": "Benešov",
        "category": "Pirátská strana",
        "description": "",
        "id": 6,
        "meta:MO": "I"        
      }
    },
    {
      "type": "Feature",
      "geometry": {
        "type": "Point",
        "coordinates": [
          14.106846,
          50.141799
        ]
      },
      "properties": {
        "name": "Kladno",
        "category": "Pirátská strana",
        "description": "",
        "id": 7,
        "meta:MO": "I"        
      }
    },
    {
      "type": "Feature",
      "geometry": {
        "type": "Point",
        "coordinates": [
          14.086384,
          49.967305
        ]
      },
      "properties": {
        "name": "Beroun",
        "category": "Pirátská strana",
        "description": "",
        "id": 8,
        "meta:MO": "I"        
      }
    },
    {
      "type": "Feature",
      "geometry": {
        "type": "Point",
        "coordinates": [
          15.118988,
          50.142525
        ]
      },
      "properties": {
        "name": "Poděbrady",
        "category": "Pirátská strana",
        "description": "",
        "id": 9,
        "meta:MO": "I"        
      }
    },
    {
      "type": "Feature",
      "geometry": {
        "type": "Point",
        "coordinates": [
          15.268754,
          49.952531
        ]
      },
      "properties": {
        "name": "Kutná Hora",
        "category": "Pirátská strana",
        "description": "",
        "id": 10,
        "meta:MO": "I"        
      }
    },
    {
      "type": "Feature",
      "geometry": {
        "type": "Point",
        "coordinates": [
          14.908538,
          50.413525
        ]
      },
      "properties": {
        "name": "Mladá Boleslav",
        "category": "Pirátská strana",
        "description": "",
        "id": 11,
        "meta:MO": "I"        
      }
    },
    {
      "type": "Feature",
      "geometry": {
        "type": "Point",
        "coordinates": [
          15.043760,
          50.185682
        ]
      },
      "properties": {
        "name": "Nymburk",
        "category": "Pirátská strana",
        "description": "",
        "id": 12,
        "meta:MO": "I"        
      }
    },
    {
      "type": "Feature",
      "geometry": {
        "type": "Point",
        "coordinates": [
          13.999045,
          49.685532
        ]
      },
      "properties": {
        "name": "Příbram",
        "category": "Pirátská strana",
        "description": "",
        "id": 13,
        "meta:MO": "I"        
      }
    },
    {
      "type": "Feature",
      "geometry": {
        "type": "Point",
        "coordinates": [
          14.319902,
          49.960184
        ]
      },
      "properties": {
        "name": "Černošice",
        "category": "Pirátská strana",
        "description": "",
        "id": 14,
        "meta:MO": "I"        
      }
    },
    {
      "type": "Feature",
      "geometry": {
        "type": "Point",
        "coordinates": [
          15.006239,
          49.144582
        ]
      },
      "properties": {
        "name": "Jindřichův Hradec",
        "category": "Pirátská strana",
        "description": "",
        "id": 15,
        "meta:MO": "I"        
      }
    },
    {
      "type": "Feature",
      "geometry": {
        "type": "Point",
        "coordinates": [
          14.718717,
          49.260039
        ]
      },
      "properties": {
        "name": "Soběslav",
        "category": "Pirátská strana",
        "description": "",
        "id": 16,
        "meta:MO": "I"        
      }
    },
    {
      "type": "Feature",
      "geometry": {
        "type": "Point",
        "coordinates": [
          14.639338,
          48.842418
        ]
      },
      "properties": {
        "name": "Trhové Sviny",
        "category": "Pirátská strana",
        "description": "",
        "id": 17,
        "meta:MO": "I"        
      }
    },
    {
      "type": "Feature",
      "geometry": {
        "type": "Point",
        "coordinates": [
          13.881864,
          49.424993
        ]
      },
      "properties": {
        "name": "Blatná",
        "category": "Pirátská strana",
        "description": "",
        "id": 18,
        "meta:MO": "I"        
      }
    },
    {
      "type": "Feature",
      "geometry": {
        "type": "Point",
        "coordinates": [
          14.764232,
          49.003615
        ]
      },
      "properties": {
        "name": "Třeboň",
        "category": "Pirátská strana",
        "description": "",
        "id": 19,
        "meta:MO": "I"        
      }
    },
    {
      "type": "Feature",
      "geometry": {
        "type": "Point",
        "coordinates": [
          13.830458,
          49.273591
        ]
      },
      "properties": {
        "name": "Katovice",
        "category": "Pirátská strana",
        "description": "",
        "id": 20,
        "meta:MO": "I"        
      }
    },
    {
      "type": "Feature",
      "geometry": {
        "type": "Point",
        "coordinates": [
          14.331260,
          48.957506
        ]
      },
      "properties": {
        "name": "Kvítkovice",
        "category": "Pirátská strana",
        "description": "",
        "id": 21,
        "meta:MO": "I"        
      }
    },
    {
      "type": "Feature",
      "geometry": {
        "type": "Point",
        "coordinates": [
          14.541407,
          48.948161
        ]
      },
      "properties": {
        "name": "Srubec",
        "category": "Pirátská strana",
        "description": "",
        "id": 22,
        "meta:MO": "I"        
      }
    },
    {
      "type": "Feature",
      "geometry": {
        "type": "Point",
        "coordinates": [
          14.003793,
          49.188506
        ]
      },
      "properties": {
        "name": "Kváskovice",
        "category": "Pirátská strana",
        "description": "",
        "id": 23,
        "meta:MO": "I"        
      }
    },
    {
      "type": "Feature",
      "geometry": {
        "type": "Point",
        "coordinates": [
          14.000100,
          49.011010
        ]
      },
      "properties": {
        "name": "Prachatice",
        "category": "Pirátská strana",
        "description": "",
        "id": 24,
        "meta:MO": "I"        
      }
    },
    {
      "type": "Feature",
      "geometry": {
        "type": "Point",
        "coordinates": [
          13.910408,
          49.260504
        ]
      },
      "properties": {
        "name": "Strakonice",
        "category": "Pirátská strana",
        "description": "",
        "id": 25,
        "meta:MO": "I"        
      }
    },
    {
      "type": "Feature",
      "geometry": {
        "type": "Point",
        "coordinates": [
          14.677566,
          49.413089
        ]
      },
      "properties": {
        "name": "Tábor",
        "category": "Pirátská strana",
        "description": "",
        "id": 26,
        "meta:MO": "I"        
      }
    },
    {
      "type": "Feature",
      "geometry": {
        "type": "Point",
        "coordinates": [
          13.830458,
          49.273591
        ]
      },
      "properties": {
        "name": "Katovice",
        "category": "Pirátská strana",
        "description": "",
        "id": 27,
        "meta:MO": "I"        
      }
    },
    {
      "type": "Feature",
      "geometry": {
        "type": "Point",
        "coordinates": [
          17.452331,
          49.122346
        ]
      },
      "properties": {
        "name": "Sušice",
        "category": "Pirátská strana",
        "description": "",
        "id": 28,
        "meta:MO": "I"        
      }
    },
    {
      "type": "Feature",
      "geometry": {
        "type": "Point",
        "coordinates": [
          13.295194,
          49.395655
        ]
      },
      "properties": {
        "name": "Klatovy",
        "category": "Pirátská strana",
        "description": "",
        "id": 29,
        "meta:MO": "I"        
      }
    },
    {
      "type": "Feature",
      "geometry": {
        "type": "Point",
        "coordinates": [
          12.931243,
          49.439803
        ]
      },
      "properties": {
        "name": "Domažlice",
        "category": "Pirátská strana",
        "description": "",
        "id": 30,
        "meta:MO": "I"        
      }
    },
    {
      "type": "Feature",
      "geometry": {
        "type": "Point",
        "coordinates": [
          12.730254,
          49.893323
        ]
      },
      "properties": {
        "name": "Chodová Planá",
        "category": "Pirátská strana",
        "description": "",
        "id": 31,
        "meta:MO": "I"        
      }
    },
    {
      "type": "Feature",
      "geometry": {
        "type": "Point",
        "coordinates": [
          12.931243,
          49.439803
        ]
      },
      "properties": {
        "name": "Domažlice",
        "category": "Pirátská strana",
        "description": "",
        "id": 32,
        "meta:MO": "I"        
      }
    },
    {
      "type": "Feature",
      "geometry": {
        "type": "Point",
        "coordinates": [
          13.004203,
          49.753048
        ]
      },
      "properties": {
        "name": "Stříbro",
        "category": "Pirátská strana",
        "description": "",
        "id": 33,
        "meta:MO": "I"        
      }
    },
    {
      "type": "Feature",
      "geometry": {
        "type": "Point",
        "coordinates": [
          12.872062,
          50.231952
        ]
      },
      "properties": {
        "name": "Karlovy Vary",
        "category": "Pirátská strana",
        "description": "",
        "id": 34,
        "meta:MO": "I"        
      }
    },
    {
      "type": "Feature",
      "geometry": {
        "type": "Point",
        "coordinates": [
          12.195113,
          50.223983
        ]
      },
      "properties": {
        "name": "Aš",
        "category": "Pirátská strana",
        "description": "",
        "id": 35,
        "meta:MO": "I"        
      }
    },
    {
      "type": "Feature",
      "geometry": {
        "type": "Point",
        "coordinates": [
          12.195113,
          50.223983
        ]
      },
      "properties": {
        "name": "Aš",
        "category": "Pirátská strana",
        "description": "",
        "id": 36,
        "meta:MO": "I"        
      }
    },
    {
      "type": "Feature",
      "geometry": {
        "type": "Point",
        "coordinates": [
          12.701298,
          49.964699
        ]
      },
      "properties": {
        "name": "Mariánské Lázně",
        "category": "Pirátská strana",
        "description": "",
        "id": 37,
        "meta:MO": "I"        
      }
    },
    {
      "type": "Feature",
      "geometry": {
        "type": "Point",
        "coordinates": [
          15.116995,
          49.655592
        ]
      },
      "properties": {
        "name": "Loket",
        "category": "Pirátská strana",
        "description": "",
        "id": 38,
        "meta:MO": "I"        
      }
    },
    {
      "type": "Feature",
      "geometry": {
        "type": "Point",
        "coordinates": [
          12.573526,
          50.296380
        ]
      },
      "properties": {
        "name": "Rotava",
        "category": "Pirátská strana",
        "description": "",
        "id": 39,
        "meta:MO": "I"        
      }
    },
    {
      "type": "Feature",
      "geometry": {
        "type": "Point",
        "coordinates": [
          16.035790,
          49.144404
        ]
      },
      "properties": {
        "name": "Valeč",
        "category": "Pirátská strana",
        "description": "",
        "id": 40,
        "meta:MO": "I"        
      }
    },
    {
      "type": "Feature",
      "geometry": {
        "type": "Point",
        "coordinates": [
          13.410837,
          50.463598
        ]
      },
      "properties": {
        "name": "Chomutov",
        "category": "Pirátská strana",
        "description": "",
        "id": 41,
        "meta:MO": "I"        
      }
    },
    {
      "type": "Feature",
      "geometry": {
        "type": "Point",
        "coordinates": [
          16.035790,
          49.144404
        ]
      },
      "properties": {
        "name": "Valeč",
        "category": "Pirátská strana",
        "description": "",
        "id": 42,
        "meta:MO": "I"        
      }
    },
    {
      "type": "Feature",
      "geometry": {
        "type": "Point",
        "coordinates": [
          13.835384,
          50.644558
        ]
      },
      "properties": {
        "name": "Teplice",
        "category": "Pirátská strana",
        "description": "",
        "id": 43,
        "meta:MO": "I"        
      }
    },
    {
      "type": "Feature",
      "geometry": {
        "type": "Point",
        "coordinates": [
          14.150658,
          50.511102
        ]
      },
      "properties": {
        "name": "Terezín",
        "category": "Pirátská strana",
        "description": "",
        "id": 44,
        "meta:MO": "I"        
      }
    },
    {
      "type": "Feature",
      "geometry": {
        "type": "Point",
        "coordinates": [
          13.271422,
          50.376092
        ]
      },
      "properties": {
        "name": "Kadaň",
        "category": "Pirátská strana",
        "description": "",
        "id": 45,
        "meta:MO": "I"        
      }
    },
    {
      "type": "Feature",
      "geometry": {
        "type": "Point",
        "coordinates": [
          13.271422,
          50.376092
        ]
      },
      "properties": {
        "name": "Kadaň",
        "category": "Pirátská strana",
        "description": "",
        "id": 46,
        "meta:MO": "I"        
      }
    },
    {
      "type": "Feature",
      "geometry": {
        "type": "Point",
        "coordinates": [
          13.633012,
          50.501655
        ]
      },
      "properties": {
        "name": "Most",
        "category": "Pirátská strana",
        "description": "",
        "id": 47,
        "meta:MO": "I"        
      }
    },
    {
      "type": "Feature",
      "geometry": {
        "type": "Point",
        "coordinates": [
          13.633012,
          50.501655
        ]
      },
      "properties": {
        "name": "Most",
        "category": "Pirátská strana",
        "description": "",
        "id": 48,
        "meta:MO": "I"        
      }
    },
    {
      "type": "Feature",
      "geometry": {
        "type": "Point",
        "coordinates": [
          13.633012,
          50.501655
        ]
      },
      "properties": {
        "name": "Most",
        "category": "Pirátská strana",
        "description": "",
        "id": 49,
        "meta:MO": "I"        
      }
    },
    {
      "type": "Feature",
      "geometry": {
        "type": "Point",
        "coordinates": [
          13.271422,
          50.376092
        ]
      },
      "properties": {
        "name": "Kadaň",
        "category": "Pirátská strana",
        "description": "",
        "id": 50,
        "meta:MO": "I"        
      }
    },
    {
      "type": "Feature",
      "geometry": {
        "type": "Point",
        "coordinates": [
          13.545886,
          50.327276
        ]
      },
      "properties": {
        "name": "Žatec",
        "category": "Pirátská strana",
        "description": "",
        "id": 51,
        "meta:MO": "I"        
      }
    },
    {
      "type": "Feature",
      "geometry": {
        "type": "Point",
        "coordinates": [
          15.054439,
          50.766380
        ]
      },
      "properties": {
        "name": "Liberec",
        "category": "Pirátská strana",
        "description": "",
        "id": 52,
        "meta:MO": "I"        
      }
    },
    {
      "type": "Feature",
      "geometry": {
        "type": "Point",
        "coordinates": [
          15.254186,
          50.642840
        ]
      },
      "properties": {
        "name": "Železný Brod",
        "category": "Pirátská strana",
        "description": "",
        "id": 53,
        "meta:MO": "I"        
      }
    },
    {
      "type": "Feature",
      "geometry": {
        "type": "Point",
        "coordinates": [
          14.724956,
          50.655768
        ]
      },
      "properties": {
        "name": "Mimoň",
        "category": "Pirátská strana",
        "description": "",
        "id": 54,
        "meta:MO": "I"        
      }
    },
    {
      "type": "Feature",
      "geometry": {
        "type": "Point",
        "coordinates": [
          14.539799,
          50.678620
        ]
      },
      "properties": {
        "name": "Česká Lípa",
        "category": "Pirátská strana",
        "description": "",
        "id": 55,
        "meta:MO": "I"        
      }
    },
    {
      "type": "Feature",
      "geometry": {
        "type": "Point",
        "coordinates": [
          15.328241,
          50.605258
        ]
      },
      "properties": {
        "name": "Semily",
        "category": "Pirátská strana",
        "description": "",
        "id": 56,
        "meta:MO": "I"        
      }
    },
    {
      "type": "Feature",
      "geometry": {
        "type": "Point",
        "coordinates": [
          15.156909,
          50.587385
        ]
      },
      "properties": {
        "name": "Turnov",
        "category": "Pirátská strana",
        "description": "",
        "id": 57,
        "meta:MO": "I"        
      }
    },
    {
      "type": "Feature",
      "geometry": {
        "type": "Point",
        "coordinates": [
          15.170414,
          50.722153
        ]
      },
      "properties": {
        "name": "Jablonec nad Nisou",
        "category": "Pirátská strana",
        "description": "",
        "id": 58,
        "meta:MO": "I"        
      }
    },
    {
      "type": "Feature",
      "geometry": {
        "type": "Point",
        "coordinates": [
          15.83277,
          50.20923
        ]
      },
      "properties": {
        "name": "Hradec Králové",
        "category": "Pirátská strana",
        "description": "",
        "id": 59,
        "meta:MO": "I"        
      }
    },
    {
      "type": "Feature",
      "geometry": {
        "type": "Point",
        "coordinates": [
          15.861390,
          50.338147
        ]
      },
      "properties": {
        "name": "Rožnov",
        "category": "Pirátská strana",
        "description": "",
        "id": 60,
        "meta:MO": "I"        
      }
    },
    {
      "type": "Feature",
      "geometry": {
        "type": "Point",
        "coordinates": [
          15.909192,
          50.565484
        ]
      },
      "properties": {
        "name": "Trutnov",
        "category": "Pirátská strana",
        "description": "",
        "id": 61,
        "meta:MO": "I"        
      }
    },
    {
      "type": "Feature",
      "geometry": {
        "type": "Point",
        "coordinates": [
          16.160118,
          50.292111
        ]
      },
      "properties": {
        "name": "Dobruška",
        "category": "Pirátská strana",
        "description": "",
        "id": 62,
        "meta:MO": "I"        
      }
    },
    {
      "type": "Feature",
      "geometry": {
        "type": "Point",
        "coordinates": [
          15.781299,
          50.034409
        ]
      },
      "properties": {
        "name": "Pardubice",
        "category": "Pirátská strana",
        "description": "",
        "id": 63,
        "meta:MO": "I"        
      }
    },
    {
      "type": "Feature",
      "geometry": {
        "type": "Point",
        "coordinates": [
          15.781299,
          50.034409
        ]
      },
      "properties": {
        "name": "Pardubice",
        "category": "Pirátská strana",
        "description": "",
        "id": 64,
        "meta:MO": "I"        
      }
    },
    {
      "type": "Feature",
      "geometry": {
        "type": "Point",
        "coordinates": [
          15.665028,
          49.947170
        ]
      },
      "properties": {
        "name": "Heřmanův Městec",
        "category": "Pirátská strana",
        "description": "",
        "id": 65,
        "meta:MO": "I"        
      }
    },
    {
      "type": "Feature",
      "geometry": {
        "type": "Point",
        "coordinates": [
          15.907661,
          49.762231
        ]
      },
      "properties": {
        "name": "Hlinsko",
        "category": "Pirátská strana",
        "description": "",
        "id": 66,
        "meta:MO": "I"        
      }
    },
    {
      "type": "Feature",
      "geometry": {
        "type": "Point",
        "coordinates": [
          15.934067,
          49.902149
        ]
      },
      "properties": {
        "name": "Chrast",
        "category": "Pirátská strana",
        "description": "",
        "id": 67,
        "meta:MO": "I"        
      }
    },
    {
      "type": "Feature",
      "geometry": {
        "type": "Point",
        "coordinates": [
          16.569965,
          49.898427
        ]
      },
      "properties": {
        "name": "Rudoltice",
        "category": "Pirátská strana",
        "description": "",
        "id": 68,
        "meta:MO": "I"        
      }
    },
    {
      "type": "Feature",
      "geometry": {
        "type": "Point",
        "coordinates": [
          16.663631,
          49.757697
        ]
      },
      "properties": {
        "name": "Moravská Třebová",
        "category": "Pirátská strana",
        "description": "",
        "id": 69,
        "meta:MO": "I"        
      }
    },
    {
      "type": "Feature",
      "geometry": {
        "type": "Point",
        "coordinates": [
          16.663631,
          49.757697
        ]
      },
      "properties": {
        "name": "Moravská Třebová",
        "category": "Pirátská strana",
        "description": "",
        "id": 70,
        "meta:MO": "I"        
      }
    },
    {
      "type": "Feature",
      "geometry": {
        "type": "Point",
        "coordinates": [
          16.447385,
          49.901982
        ]
      },
      "properties": {
        "name": "Česká Třebová",
        "category": "Pirátská strana",
        "description": "",
        "id": 71,
        "meta:MO": "I"        
      }
    },
    {
      "type": "Feature",
      "geometry": {
        "type": "Point",
        "coordinates": [
          16.469286,
          49.755263
        ]
      },
      "properties": {
        "name": "Svitavy",
        "category": "Pirátská strana",
        "description": "",
        "id": 72,
        "meta:MO": "I"        
      }
    },
    {
      "type": "Feature",
      "geometry": {
        "type": "Point",
        "coordinates": [
          15.795158,
          49.949824
        ]
      },
      "properties": {
        "name": "Chrudim",
        "category": "Pirátská strana",
        "description": "",
        "id": 73,
        "meta:MO": "I"        
      }
    },
    {
      "type": "Feature",
      "geometry": {
        "type": "Point",
        "coordinates": [
          16.265977,
          49.715034
        ]
      },
      "properties": {
        "name": "Polička",
        "category": "Pirátská strana",
        "description": "",
        "id": 74,
        "meta:MO": "I"        
      }
    },
    {
      "type": "Feature",
      "geometry": {
        "type": "Point",
        "coordinates": [
          15.829087,
          49.764770
        ]
      },
      "properties": {
        "name": "Vysočina",
        "category": "Pirátská strana",
        "description": "",
        "id": 75,
        "meta:MO": "I"        
      }
    },
    {
      "type": "Feature",
      "geometry": {
        "type": "Point",
        "coordinates": [
          15.671142,
          49.720714
        ]
      },
      "properties": {
        "name": "Chotěboř",
        "category": "Pirátská strana",
        "description": "",
        "id": 76,
        "meta:MO": "I"        
      }
    },
    {
      "type": "Feature",
      "geometry": {
        "type": "Point",
        "coordinates": [
          15.579755,
          49.604436
        ]
      },
      "properties": {
        "name": "Havlíčkův Brod",
        "category": "Pirátská strana",
        "description": "",
        "id": 77,
        "meta:MO": "I"        
      }
    },
    {
      "type": "Feature",
      "geometry": {
        "type": "Point",
        "coordinates": [
          15.879652,
          49.214887
        ]
      },
      "properties": {
        "name": "Třebíč",
        "category": "Pirátská strana",
        "description": "",
        "id": 78,
        "meta:MO": "I"        
      }
    },
    {
      "type": "Feature",
      "geometry": {
        "type": "Point",
        "coordinates": [
          15.454373,
          49.183338
        ]
      },
      "properties": {
        "name": "Telč",
        "category": "Pirátská strana",
        "description": "",
        "id": 79,
        "meta:MO": "I"        
      }
    },
    {
      "type": "Feature",
      "geometry": {
        "type": "Point",
        "coordinates": [
          16.6068371,
          49.1950602
        ]
      },
      "properties": {
        "name": "Brno - Jihomoravský kraj",
        "category": "Pirátská strana",
        "description": "",
        "id": 80,
        "meta:MO": "I"        
      }
    },
    {
      "type": "Feature",
      "geometry": {
        "type": "Point",
        "coordinates": [
          16.594528,
          49.2241169
        ]
      },
      "properties": {
        "name": "Brno - Královo pole",
        "category": "Pirátská strana",
        "description": "",
        "id": 81,
        "meta:MO": "I"        
      }
    },
    {
      "type": "Feature",
      "geometry": {
        "type": "Point",
        "coordinates": [
          16.574814,
          49.2136906
        ]
      },
      "properties": {
        "name": "Brno - Žabovřesky",
        "category": "Pirátská strana",
        "description": "",
        "id": 82,
        "meta:MO": "I"        
      }
    },
    {
      "type": "Feature",
      "geometry": {
        "type": "Point",
        "coordinates": [
          16.6410026,
          49.4072849
        ]
      },
      "properties": {
        "name": "Blanensko",
        "category": "Pirátská strana",
        "description": "",
        "id": 83,
        "meta:MO": "I"        
      }
    },
    {
      "type": "Feature",
      "geometry": {
        "type": "Point",
        "coordinates": [
          16.6410026,
          49.4072849
        ]
      },
      "properties": {
        "name": "MS Blanensko",
        "category": "Pirátská strana",
        "description": "",
        "id": 84,
        "meta:MO": "I"        
      }
    },
    {
      "type": "Feature",
      "geometry": {
        "type": "Point",
        "coordinates": [
          16.0542676,
          48.8559107
        ]
      },
      "properties": {
        "name": "Znojemsko",
        "category": "Pirátská strana",
        "description": "",
        "id": 85,
        "meta:MO": "I"        
      }
    },
    {
      "type": "Feature",
      "geometry": {
        "type": "Point",
        "coordinates": [
          16.660076,
          49.487612
        ]
      },
      "properties": {
        "name": "Boskovice",
        "category": "Pirátská strana",
        "description": "",
        "id": 86,
        "meta:MO": "I"        
      }
    },
    {
      "type": "Feature",
      "geometry": {
        "type": "Point",
        "coordinates": [
          15.787170,
          49.837054
        ]
      },
      "properties": {
        "name": "Hodonín",
        "category": "Pirátská strana",
        "description": "",
        "id": 87,
        "meta:MO": "I"        
      }
    },
    {
      "type": "Feature",
      "geometry": {
        "type": "Point",
        "coordinates": [
          16.882617,
          48.753240
        ]
      },
      "properties": {
        "name": "Břeclav",
        "category": "Pirátská strana",
        "description": "",
        "id": 88,
        "meta:MO": "I"        
      }
    },
    {
      "type": "Feature",
      "geometry": {
        "type": "Point",
        "coordinates": [
          17.415174,
          49.871099
        ]
      },
      "properties": {
        "name": "Lomnice",
        "category": "Pirátská strana",
        "description": "",
        "id": 89,
        "meta:MO": "I"        
      }
    },
    {
      "type": "Feature",
      "geometry": {
        "type": "Point",
        "coordinates": [
          17.029280,
          48.904228
        ]
      },
      "properties": {
        "name": "Mutěnice",
        "category": "Pirátská strana",
        "description": "",
        "id": 90,
        "meta:MO": "I"        
      }
    },
    {
      "type": "Feature",
      "geometry": {
        "type": "Point",
        "coordinates": [
          17.250979,
          49.593878
        ]
      },
      "properties": {
        "name": "Olomouc",
        "category": "Pirátská strana",
        "description": "",
        "id": 91,
        "meta:MO": "I"        
      }
    },
    {
      "type": "Feature",
      "geometry": {
        "type": "Point",
        "coordinates": [
          16.872332,
          49.882700
        ]
      },
      "properties": {
        "name": "Zábřeh",
        "category": "Pirátská strana",
        "description": "",
        "id": 92,
        "meta:MO": "I"        
      }
    },
    {
      "type": "Feature",
      "geometry": {
        "type": "Point",
        "coordinates": [
          13.004203,
          49.753048
        ]
      },
      "properties": {
        "name": "Stříbro",
        "category": "Pirátská strana",
        "description": "",
        "id": 93,
        "meta:MO": "I"        
      }
    },
    {
      "type": "Feature",
      "geometry": {
        "type": "Point",
        "coordinates": [
          16.971875,
          49.977941
        ]
      },
      "properties": {
        "name": "Šumperk",
        "category": "Pirátská strana",
        "description": "",
        "id": 94,
        "meta:MO": "I"        
      }
    },
    {
      "type": "Feature",
      "geometry": {
        "type": "Point",
        "coordinates": [
          18.623896,
          49.747144
        ]
      },
      "properties": {
        "name": "Český Těšín",
        "category": "Pirátská strana",
        "description": "",
        "id": 95,
        "meta:MO": "I"        
      }
    },
    {
      "type": "Feature",
      "geometry": {
        "type": "Point",
        "coordinates": [
          18.262624,
          49.821023
        ]
      },
      "properties": {
        "name": "Ostrava",
        "category": "Pirátská strana",
        "description": "",
        "id": 96,
        "meta:MO": "I"        
      }
    },
    {
      "type": "Feature",
      "geometry": {
        "type": "Point",
        "coordinates": [
          17.463794,
          49.988277
        ]
      },
      "properties": {
        "name": "Bruntál",
        "category": "Pirátská strana",
        "description": "",
        "id": 97,
        "meta:MO": "I"        
      }
    },
    {
      "type": "Feature",
      "geometry": {
        "type": "Point",
        "coordinates": [
          17.463794,
          49.988277
        ]
      },
      "properties": {
        "name": "Bruntál",
        "category": "Pirátská strana",
        "description": "",
        "id": 98,
        "meta:MO": "I"        
      }
    },
    {
      "type": "Feature",
      "geometry": {
        "type": "Point",
        "coordinates": [
          17.894899,
          49.940760
        ]
      },
      "properties": {
        "name": "Opava",
        "category": "Pirátská strana",
        "description": "",
        "id": 99,
        "meta:MO": "I"        
      }
    },
    {
      "type": "Feature",
      "geometry": {
        "type": "Point",
        "coordinates": [
          18.357074,
          49.904426
        ]
      },
      "properties": {
        "name": "Bohumín",
        "category": "Pirátská strana",
        "description": "",
        "id": 100,
        "meta:MO": "I"        
      }
    },
    {
      "type": "Feature",
      "geometry": {
        "type": "Point",
        "coordinates": [
          18.235519,
          49.729234
        ]
      },
      "properties": {
        "name": "Krmelín",
        "category": "Pirátská strana",
        "description": "",
        "id": 101,
        "meta:MO": "I"        
      }
    },
    {
      "type": "Feature",
      "geometry": {
        "type": "Point",
        "coordinates": [
          18.376369,
          49.866350
        ]
      },
      "properties": {
        "name": "Rychvald",
        "category": "Pirátská strana",
        "description": "",
        "id": 102,
        "meta:MO": "I"        
      }
    },
    {
      "type": "Feature",
      "geometry": {
        "type": "Point",
        "coordinates": [
          18.144910,
          49.599570
        ]
      },
      "properties": {
        "name": "Kopřivnice",
        "category": "Pirátská strana",
        "description": "",
        "id": 103,
        "meta:MO": "I"        
      }
    },
    {
      "type": "Feature",
      "geometry": {
        "type": "Point",
        "coordinates": [
          17.463848,
          49.316992
        ]
      },
      "properties": {
        "name": "Hulín",
        "category": "Pirátská strana",
        "description": "",
        "id": 104,
        "meta:MO": "I"        
      }
    },
    {
      "type": "Feature",
      "geometry": {
        "type": "Point",
        "coordinates": [
          17.993952,
          49.339025
        ]
      },
      "properties": {
        "name": "Vsetín",
        "category": "Pirátská strana",
        "description": "",
        "id": 105,
        "meta:MO": "I"        
      }
    },
    {
      "type": "Feature",
      "geometry": {
        "type": "Point",
        "coordinates": [
          17.399480,
          49.291758
        ]
      },
      "properties": {
        "name": "Kroměříž",
        "category": "Pirátská strana",
        "description": "",
        "id": 106,
        "meta:MO": "I"        
      }
    },
    {
      "type": "Feature",
      "geometry": {
        "type": "Point",
        "coordinates": [
          17.495950,
          49.059897
        ]
      },
      "properties": {
        "name": "Uherské Hradiště",
        "category": "Pirátská strana",
        "description": "",
        "id": 107,
        "meta:MO": "I"        
      }
    },
    {
      "type": "Feature",
      "geometry": {
        "type": "Point",
        "coordinates": [
          17.854921,
          49.223073
        ]
      },
      "properties": {
        "name": "Vizovice",
        "category": "Pirátská strana",
        "description": "",
        "id": 108,
        "meta:MO": "I"        
      }
    },
    {
      "type": "Feature",
      "geometry": {
        "type": "Point",
        "coordinates": [
          17.512053,
          49.171658
        ]
      },
      "properties": {
        "name": "Napajedla",
        "category": "Pirátská strana",
        "description": "",
        "id": 109,
        "meta:MO": "I"        
      }
    }           
  ]
}
